{
  "type": "FeatureCollection",
  "features": [
    {
      "type": "Feature",
      "properties": {
        "name": "Heathrow Central",
        "adjacent": ["Heathrow Terminal 4", "Hayes & Harlington"]
      },
      "geometry": {
        "type": "Point",
        "coordinates": [
          -0.454,
          51.471
        ]
      }
    },
    {
      "type": "Feature",
      "properties": {
        "name": "Heathrow Terminal 4",
        "adjacent": ["Heathrow Central"]
      },
      "geometry": {
        "type": "Point",
        "coordinates": [
          -0.445,
          51.458
        ]
      }
    },
    {
      "type": "Feature",
      "properties": {
        "name": "Taplow",
        "adjacent": ["Maidenhead", "Taplow"]
      },
      "geometry": {
        "type": "Point",
        "coordinates": [
          -0.681,
          51.524
        ]
      }
    },
	  {
      "type": "Feature",
      "properties": {
        "name": "Burnham",
        "adjacent": ["Taplow", "Slough"]
      },
      "geometry": {
        "type": "Point",
        "coordinates": [
          -0.646,
          51.524
        ]
      }
    },
	{
      "type": "Feature",
      "properties": {
        "name": "Slough",
        "adjacent": ["Burnham", "Langley"]
      },
      "geometry": {
        "type": "Point",
        "coordinates": [
          -0.592,
          51.512
        ]
      }
    },
	{
      "type": "Feature",
      "properties": {
        "name": "Langley",
        "adjacent": ["Slough", "Iver"]
      },
      "geometry": {
        "type": "Point",
        "coordinates": [
          -0.542,
          51.508
        ]
      }
    },
	{
      "type": "Feature",
      "properties": {
        "name": "Iver",
        "adjacent": ["Langley", "West Drayton"]
      },
      "geometry": {
        "type": "Point",
        "coordinates": [
          -0.507,
          51.509
        ]
      }
    },
	{
      "type": "Feature",
      "properties": {
        "name": "West Drayton",
        "adjacent": ["Iver", "Hayes & Harlington"]
      },
      "geometry": {
        "type": "Point",
        "coordinates": [
          -0.4722639,
          51.5099417
        ]
      }
    },
	{
      "type": "Feature",
      "properties": {
        "name": "Hayes & Harlington",
        "adjacent": ["West Drayton", "Southall", "Heathrow Central"]
      },
      "geometry": {
        "type": "Point",
        "coordinates": [
          -0.4201,
          51.502
        ]
      }
    },
	{
      "type": "Feature",
      "properties": {
        "name": "Southall",
        "adjacent": ["Hayes & Harlington", "Hanwell"]
      },
      "geometry": {
        "type": "Point",
        "coordinates": [
          -0.3783,
          51.506
        ]
      }
    },
	{
      "type": "Feature",
      "properties": {
        "name": "Hanwell",
        "adjacent": ["Southall", "West Ealing"]
      },
      "geometry": {
        "type": "Point",
        "coordinates": [
          -0.3389,
          51.5116
        ]
      }
    },
	{
      "type": "Feature",
      "properties": {
        "name": "West Ealing",
        "adjacent": ["Hanwell", "Ealing Broadway"]
      },
      "geometry": {
        "type": "Point",
        "coordinates": [
          -0.3203,
          51.5137
        ]
      }
    },
	{
      "type": "Feature",
      "properties": {
        "name": "Ealing Broadway",
        "adjacent": ["West Ealing", "Acton Main Line"]
      },
      "geometry": {
        "type": "Point",
        "coordinates": [
          -0.3017,
          51.5147
        ]
      }
    },
	{
      "type": "Feature",
      "properties": {
        "name": "Acton Main Line",
        "adjacent": ["Ealing Broadway", "Old Oak Common"]
      },
      "geometry": {
        "type": "Point",
        "coordinates": [
          -0.2668,
          51.5171
        ]
      }
    },
	{
      "type": "Feature",
      "properties": {
        "name": "Old Oak Common",
        "adjacent": ["Acton Main Line", "Paddington"]
      },
      "geometry": {
        "type": "Point",
        "coordinates": [
          -0.24672,
          51.524873
        ]
      }
    },
	{
      "type": "Feature",
      "properties": {
        "name": "Paddington",
        "adjacent": ["Old Oak Common", "Bond Street"]
      },
      "geometry": {
        "type": "Point",
        "coordinates": [
          -0.1774,
          51.5173
        ]
      }
    },
	{
      "type": "Feature",
      "properties": {
        "name": "Bond Street",
        "adjacent": ["Paddington", "Tottenham Court"]
      },
      "geometry": {
        "type": "Point",
        "coordinates": [
          -0.15,
          51.514
        ]
      }
    },
	{
      "type": "Feature",
      "properties": {
        "name": "Tottenham Court",
        "adjacent": ["Bond Street", "Farringdon"]
      },
      "geometry": {
        "type": "Point",
        "coordinates": [
          -0.1309,
          51.5162
        ]
      }
    },
	{
      "type": "Feature",
      "properties": {
        "name": "Farringdon",
        "adjacent": ["Tottenham Court", "Liverpool Street"]
      },
      "geometry": {
        "type": "Point",
        "coordinates": [
          -0.1053,
          51.520
        ]
      }
    },
	{
      "type": "Feature",
      "properties": {
        "name": "Liverpool Street",
        "adjacent": ["Farringdon", "Whitechapel"]
      },
      "geometry": {
        "type": "Point",
        "coordinates": [
          -0.0813,
          51.5186
        ]
      }
    },
	{
      "type": "Feature",
      "properties": {
        "name": "Whitechapel",
        "adjacent": ["Liverpool Street", "Canary Wharf", "Stratford"]
      },
      "geometry": {
        "type": "Point",
        "coordinates": [
          -0.061,
          51.519
        ]
      }
    },
	{
      "type": "Feature",
      "properties": {
        "name": "Canary Wharf",
        "adjacent": ["Whitechapel", "Custom House"]
      },
      "geometry": {
        "type": "Point",
        "coordinates": [
          -0.01578,
          51.5061
        ]
      }
    },
	{
      "type": "Feature",
      "properties": {
        "name": "Custom House",
        "adjacent": ["Canary Wharf", "Woolwich"]
      },
      "geometry": {
        "type": "Point",
        "coordinates": [
          0.025894,
          51.509639
        ]
      }
    },
	{
      "type": "Feature",
      "properties": {
        "name": "Woolwich",
        "adjacent": ["Custom House", "Abbey Wood"]
      },
      "geometry": {
        "type": "Point",
        "coordinates": [
          0.071819,
          51.491578
        ]
      }
    },
	{
      "type": "Feature",
      "properties": {
        "name": "Abbey Wood",
        "adjacent": ["Woolwich", "Gravesend"]
      },
      "geometry": {
        "type": "Point",
        "coordinates": [
          0.1214,
          51.4910
        ]
      }
    },
	{
      "type": "Feature",
      "properties": {
        "name": "Gravesend",
        "adjacent": ["Abbey Wood"]
      },
      "geometry": {
        "type": "Point",
        "coordinates": [
          0.366692,
          51.441317
        ]
      }
    },
	{
      "type": "Feature",
      "properties": {
        "name": "Stratford",
        "adjacent": ["Whitechapel", "Maryland"]
      },
      "geometry": {
        "type": "Point",
        "coordinates": [
          -0.0033,
          51.5422
        ]
      }
    },
	{
      "type": "Feature",
      "properties": {
        "name": "Maryland",
        "adjacent": ["Stratford", "Forest Gate"]
      },
      "geometry": {
        "type": "Point",
        "coordinates": [
          0.0059,
          51.546
        ]
      }
    },
	{
      "type": "Feature",
      "properties": {
        "name": "Forest Gate",
        "adjacent": ["Maryland", "Manor Park"]
      },
      "geometry": {
        "type": "Point",
        "coordinates": [
          0.0242,
          51.5494
        ]
      }
    },
	{
      "type": "Feature",
      "properties": {
        "name": "Manor Park",
        "adjacent": ["Forest Gate", "Ilford"]
      },
      "geometry": {
        "type": "Point",
        "coordinates": [
          0.0463,
          51.5526
        ]
      }
    },
	{
      "type": "Feature",
      "properties": {
        "name": "Ilford",
        "adjacent": ["Manor Park", "Seven Kings"]
      },
      "geometry": {
        "type": "Point",
        "coordinates": [
          0.0700,
          51.5592
        ]
      }
    },
	{
      "type": "Feature",
      "properties": {
        "name": "Seven Kings",
        "adjacent": ["Ilford", "Goodmayes"]
      },
      "geometry": {
        "type": "Point",
        "coordinates": [
          0.0969,
          51.5635
        ]
      }
    },
	{
      "type": "Feature",
      "properties": {
        "name": "Goodmayes",
        "adjacent": ["Seven Kings", "Chadwell Heath"]
      },
      "geometry": {
        "type": "Point",
        "coordinates": [
          0.1109,
          51.5655
        ]
      }
    },
	{
      "type": "Feature",
      "properties": {
        "name": "Chadwell Heath",
        "adjacent": ["Goodmayes", "Romford"]
      },
      "geometry": {
        "type": "Point",
        "coordinates": [
          0.1292,
          51.5678
        ]
      }
    },
	{
      "type": "Feature",
      "properties": {
        "name": "Romford",
        "adjacent": ["Chadwell Heath", "Gidea Park"]
      },
      "geometry": {
        "type": "Point",
        "coordinates": [
          0.1827,
          51.5749
        ]
      }
    },
	{
      "type": "Feature",
      "properties": {
        "name": "Gidea Park",
        "adjacent": ["Romford", "Harold Wood"]
      },
      "geometry": {
        "type": "Point",
        "coordinates": [
          0.2063,
          51.582          
        ]
      }
    },
	{
      "type": "Feature",
      "properties": {
        "name": "Harold Wood",
        "adjacent": ["Gidea Park", "Brentwood"]
      },
      "geometry": {
        "type": "Point",
        "coordinates": [
          0.2343,
          51.5928
        ]
      }
    },
	{
      "type": "Feature",
      "properties": {
        "name": "Brentwood",
        "adjacent": ["Harold Wood", "Shenfield"]
      },
      "geometry": {
        "type": "Point",
        "coordinates": [
          0.3,
          51.6136
        ]
      }
    },
	{
      "type": "Feature",
      "properties": {
        "name": "Shenfield",
        "adjacent": ["Brentwood"]
      },
      "geometry": {
        "type": "Point",
        "coordinates": [
          0.3297,
          51.6307
        ]
      }
    },
	{
      "type": "Feature",
      "properties": {
        "name": "Reading",
        "adjacent": ["Twyford"]
      },
      "geometry": {
        "type": "Point",
        "coordinates": [
          -0.9722,
          51.4590
        ]
      }
    },
	{
      "type": "Feature",
      "properties": {
        "name": "Twyford",
        "adjacent": ["Reading", "Maidenhead"]
      },
      "geometry": {
        "type": "Point",
        "coordinates": [
          -0.863,
          51.476
        ]
      }
    },
	{
      "type": "Feature",
      "properties": {
        "name": "Maidenhead",
        "adjacent": ["Twyford", "Taplow"]
      },
      "geometry": {
        "type": "Point",
        "coordinates": [
          -0.723,
          51.519
        ]
      }
    }
  ]
}